City_ID,City,Lat,Lng,Max Temp,Humidity,Cloudiness,Wind Speed,Country,Date
0,college,64.8569,-147.8028,48.15,91,100,9.22,US,1694031402
1,gidole,5.65,37.3667,59.0,80,64,1.66,ET,1694031402
2,kodiak,57.79,-152.4072,53.11,58,40,6.91,US,1694031403
3,khovd,48.0056,91.6419,53.04,37,52,8.55,MN,1694031403
4,richards bay,-28.783,32.0377,61.32,75,1,3.98,ZA,1694031403
5,san antonio de pale,-1.4014,5.6325,73.98,85,61,9.13,GQ,1694031403
6,margaret river,-33.95,115.0667,44.49,73,5,5.73,AU,1694031404
7,guarapari,-20.6667,-40.4975,71.89,90,100,13.67,BR,1694031404
8,udachny,66.4167,112.4,30.45,100,100,18.19,RU,1694031404
9,hobyo,5.3505,48.5268,77.59,85,6,24.99,SO,1694031405
10,puerto natales,-51.7236,-72.4875,41.94,72,50,11.05,CL,1694031405
11,edinburgh of the seven seas,-37.0676,-12.3116,59.04,84,80,38.97,SH,1694031405
12,blackmans bay,-43.0167,147.3167,54.73,70,100,6.4,AU,1694031406
13,basco,20.4487,121.9702,82.63,79,100,16.78,PH,1694031406
14,newman,37.3138,-121.0208,87.06,26,0,3.42,US,1694031406
15,grytviken,-54.2811,-36.5092,22.3,76,30,10.85,GS,1694031406
16,carutapera,-1.195,-46.02,82.9,70,50,11.32,BR,1694031407
17,port-aux-francais,-49.35,70.2167,37.87,70,100,13.38,TF,1694031407
18,nova sintra,14.8667,-24.7167,74.8,75,100,17.54,CV,1694031407
19,ilulissat,69.2167,-51.1,35.62,93,100,3.44,GL,1694031408
20,mana,5.6592,-53.7767,83.57,68,84,11.21,GF,1694031408
21,angra do heroismo,38.65,-27.2167,73.11,79,20,8.01,PT,1694031408
22,hawaiian paradise park,19.5933,-154.9731,83.73,73,40,6.91,US,1694031408
23,holualoa,19.6228,-155.9522,83.88,76,40,8.05,US,1694031408
24,whitehorse,60.7161,-135.0538,57.31,51,83,10.0,CA,1694031409
25,adamstown,-25.066,-130.1015,67.41,65,43,11.41,PN,1694031409
26,tura,25.5198,90.2201,76.19,95,100,5.97,IN,1694031409
27,waitangi,-43.9535,-176.5597,55.81,88,63,11.99,NZ,1694031409
28,belel,7.05,14.4333,62.13,95,79,3.29,CM,1694031410
29,teknaf,20.8624,92.3058,78.46,94,100,12.55,BD,1694031410
30,bardai,11.65,7.2333,77.9,65,0,3.8,NG,1694031410
31,ribeira grande,38.5167,-28.7,73.8,73,75,8.05,PT,1694031410
32,new norfolk,-42.7826,147.0587,55.92,76,99,2.86,AU,1694031410
33,tarawa,1.419,172.984,86.09,74,20,11.5,KI,1694031411
34,punta arenas,-53.15,-70.9167,40.75,71,97,21.21,CL,1694031203
35,coquimbo,-29.9533,-71.3436,58.73,88,75,9.22,CL,1694031411
36,tarinkot,32.6268,65.8733,73.06,12,0,1.86,AF,1694031411
37,cidade velha,14.9167,-23.6167,77.47,88,100,16.11,CV,1694031411
38,fale old settlement,-9.3852,-171.2468,82.15,80,61,15.9,TK,1694031412
39,hadibu,12.65,54.0333,79.32,81,36,12.24,YE,1694031412
40,aykhal,66.0,111.5,26.44,95,100,12.06,RU,1694031412
41,thompson,55.7435,-97.8558,59.16,58,75,5.75,CA,1694031413
42,las khorey,11.1595,48.1967,87.49,68,3,3.83,SO,1694031414
43,palmer,42.1584,-72.3287,92.62,50,20,4.61,US,1694031415
44,tiksi,71.6872,128.8694,36.0,89,25,19.89,RU,1694031417
45,antonio enes,-16.2325,39.9086,75.4,78,1,7.34,MZ,1694031417
46,isafjordur,66.0755,-23.124,51.82,92,100,8.14,IS,1694031417
47,huambo,-12.7761,15.7392,68.63,21,0,4.54,AO,1694031417
48,albany,42.6001,-73.9662,91.02,56,0,1.01,US,1694031418
49,pelabuhanratu,-6.9875,106.5514,72.73,86,46,3.29,ID,1694031418
50,gulf shores,30.246,-87.7008,94.57,64,20,12.66,US,1694031418
51,port elizabeth,-33.918,25.5701,57.49,72,0,13.8,ZA,1694031418
52,kostomuksha,64.571,30.5767,44.65,79,14,5.12,RU,1694031419
53,kunming,25.0389,102.7183,62.53,88,40,2.24,CN,1694031289
54,argostolion,38.1811,20.489,77.07,65,75,0.0,GR,1694031419
55,bethel,41.3712,-73.414,91.42,63,40,6.91,US,1694031419
56,weno,7.4515,151.8468,78.75,94,100,3.44,FM,1694031420
57,iqaluit,63.7506,-68.5145,40.73,70,100,15.01,CA,1694031420
58,fort bragg,35.139,-79.006,98.8,45,0,1.99,US,1694031420
59,talnakh,69.4865,88.3972,38.21,78,9,2.55,RU,1694031421
60,okhotsk,59.3833,143.3,44.2,88,100,15.26,RU,1694031421
61,enewetak,11.3474,162.3373,83.95,77,100,15.05,MH,1694031421
62,pasighat,28.0667,95.3333,77.58,84,5,4.25,IN,1694031421
63,keflavik,64.0049,-22.5624,55.31,93,75,6.91,IS,1694031421
64,avarua,-21.2078,-159.775,69.85,83,100,14.97,CK,1694031422
65,mount pearl,47.5166,-52.7813,77.45,78,20,9.22,CA,1694031422
66,gebeit,21.0667,36.3167,91.08,20,0,6.71,SD,1694031422
67,yellowknife,62.456,-114.3525,63.41,59,75,8.05,CA,1694031423
68,vilyuysk,63.7553,121.6247,26.55,96,16,5.17,RU,1694031423
69,vorgashor,67.5833,63.95,51.08,78,96,7.9,RU,1694031423
70,kasongo,-4.45,26.6667,76.33,64,44,2.59,CD,1694031424
71,le mars,42.7942,-96.1656,76.51,31,0,9.22,US,1694031424
72,port mathurin,-19.6833,63.4167,72.73,74,3,13.98,MU,1694031424
73,mccook,40.2019,-100.6257,81.05,30,0,0.0,US,1694031424
74,laguna,38.421,-121.4238,88.09,40,0,8.05,US,1694031424
75,huarmey,-10.0681,-78.1522,72.84,68,6,13.06,PE,1694031425
76,jinshi,29.6049,111.8701,73.42,88,1,8.57,CN,1694031425
77,ternate,0.8,127.4,78.98,83,87,7.92,ID,1694031425
78,kuqa,41.7278,82.9364,72.66,20,14,2.24,CN,1694031425
79,oroqen zizhiqi,50.5667,123.7167,52.63,98,97,2.39,CN,1694031425
80,carnarvon,-24.8667,113.6333,61.0,53,18,21.92,AU,1694031425
81,tolanaro,-25.0319,46.9987,65.84,89,0,5.5,MG,1694031426
82,ancud,-41.8697,-73.8203,46.53,92,100,18.19,CL,1694031426
83,port alfred,-33.5906,26.891,57.6,69,100,13.35,ZA,1694031426
84,ketchikan,55.3422,-131.6461,57.67,82,100,9.22,US,1694031426
85,khandyga,62.6667,135.6,39.38,95,100,7.83,RU,1694031426
86,sarupathar,26.1984,93.8094,78.37,92,10,2.71,IN,1694031426
87,jamestown,42.097,-79.2353,88.02,50,40,13.8,US,1694031426
88,stanley,54.868,-1.6985,64.78,91,79,3.44,GB,1694031427
89,ushuaia,-54.8,-68.3,40.66,52,75,10.36,AR,1694031365
90,nola,40.922,14.5329,77.92,72,13,5.19,IT,1694031427
91,saldanha,-33.0117,17.9442,53.74,80,1,6.91,ZA,1694031427
92,puerto ayora,-0.7393,-90.3518,82.36,85,30,7.0,EC,1694031427
93,boa vista,2.8197,-60.6733,91.38,49,75,9.22,BR,1694031399
94,svoge,42.9667,23.35,68.7,60,15,7.65,BG,1694031428
95,san patricio,28.017,-97.5169,98.19,40,3,14.12,US,1694031428
96,borgarnes,64.5383,-21.9206,58.8,93,100,4.09,IS,1694031428
97,sarandi del yi,-33.35,-55.6333,57.38,51,100,18.39,UY,1694031428
98,shalqar,47.8333,59.6,73.74,34,100,11.07,KZ,1694031428
99,berdyansk,46.7503,36.7944,71.02,54,82,8.23,UA,1694031428
100,devils lake,48.1128,-98.8651,66.31,48,0,0.0,US,1694031219
101,rio grande,-32.035,-52.0986,64.51,75,21,18.84,BR,1694031429
102,plainview,40.7765,-73.4673,95.67,54,20,5.75,US,1694031429
103,kingston,17.997,-76.7936,89.2,79,75,17.27,JM,1694031197
104,kurumkan,54.3,110.3,57.43,94,100,3.29,RU,1694031429
105,essaouira,31.5125,-9.77,72.9,88,40,5.75,MA,1694031429
106,itoman,26.1247,127.6694,81.37,91,75,10.36,JP,1694031429
107,antofagasta,-23.65,-70.4,65.48,72,49,9.08,CL,1694031304
108,ribeira brava,32.65,-17.0667,75.7,86,97,6.96,PT,1694031430
109,jining,35.405,116.5814,71.28,77,0,2.04,CN,1694031430
110,ormara,25.2088,64.6357,79.86,85,96,8.81,PK,1694031430
111,port lincoln,-34.7333,135.8667,52.77,82,100,15.7,AU,1694031430
112,egilsstadir,65.2653,-14.3948,57.11,67,0,19.57,IS,1694031430
113,touros,-5.1989,-35.4608,78.91,71,3,15.59,BR,1694031430
114,atafu village,-8.5421,-172.5159,82.67,79,51,15.86,TK,1694031430
115,yakeshi,49.2833,120.7333,65.14,47,25,6.89,CN,1694031431
116,mar del plata,-38.0023,-57.5575,48.09,81,100,18.99,AR,1694031231
117,ad darb,17.7229,42.2526,96.08,41,87,11.54,SA,1694031431
118,crane,31.3974,-102.3501,99.0,25,0,12.97,US,1694031381
119,novozybkov,52.5396,31.9275,62.56,74,71,8.12,RU,1694031431
120,soio,-6.1349,12.3689,72.81,91,8,9.55,AO,1694031431
121,la ronge,55.1001,-105.2842,57.42,67,100,6.91,CA,1694031432
122,balkanabat,39.5108,54.3671,86.13,17,1,7.49,TM,1694031432
123,uturoa,-16.7333,-151.4333,78.4,77,89,14.56,PF,1694031432
124,alice springs,-23.7,133.8833,53.15,47,1,5.75,AU,1694031432
125,st. john's,47.5649,-52.7093,78.28,78,20,9.22,CA,1694031391
126,vadso,70.0744,29.7487,45.48,87,20,12.66,NO,1694031432
127,gordonvale,-17.0936,145.7842,73.18,93,67,5.3,AU,1694031432
128,charlotte amalie,18.3419,-64.9307,87.53,70,0,11.5,VI,1694031303
129,naze,28.3667,129.4833,76.12,86,83,9.33,JP,1694031433
130,manaure,11.7751,-72.4445,92.82,55,26,12.24,CO,1694031433
131,coahuayana de hidalgo,18.7,-103.6583,88.61,65,94,6.78,MX,1694031433
132,khorixas,-20.3667,14.9667,69.04,32,30,1.34,NA,1694031433
133,bodo,67.28,14.405,52.95,92,75,19.57,NO,1694031235
134,dudinka,69.4058,86.1778,38.62,70,63,3.0,RU,1694031433
135,fort mcmurray,56.7268,-111.381,56.79,82,100,8.05,CA,1694031287
136,hermiston,45.8404,-119.2895,83.95,30,0,6.91,US,1694031434
137,georgetown,5.4112,100.3354,82.33,83,20,6.91,MY,1694031434
138,gadzhiyevo,69.2551,33.3362,45.34,85,79,17.56,RU,1694031434
139,east london,-33.0153,27.9116,58.57,59,100,8.79,ZA,1694031434
140,governador valadares,-18.8511,-41.9494,74.01,78,93,6.26,BR,1694031394
141,gopalpur,19.2667,84.9167,80.38,83,100,3.83,IN,1694031435
142,pariaman,-0.619,100.12,73.45,87,100,3.29,ID,1694031435
143,sitka,57.0531,-135.33,60.69,67,40,3.44,US,1694031435
144,vilyuchinsk,52.9306,158.4028,53.87,97,100,0.92,RU,1694031142
145,north bend,43.4065,-124.2243,77.23,60,0,9.22,US,1694031435
146,jiayuguan,39.8167,98.3,58.69,54,96,0.18,CN,1694031435
147,santarem,-2.4431,-54.7083,93.33,59,20,10.36,BR,1694031436
148,qaqortoq,60.7167,-46.0333,41.56,93,100,2.48,GL,1694031436
149,papatowai,-46.5619,169.4708,48.51,90,100,24.65,NZ,1694031437
150,mbala,-8.8402,31.3659,69.98,52,74,0.74,ZM,1694031438
151,narrabri,-30.3167,149.7833,60.78,66,59,15.14,AU,1694031438
152,hithadhoo,-0.6,73.0833,82.29,76,100,8.39,MV,1694031438
153,olonkinbyen,70.9221,-8.7187,44.01,93,100,14.5,SJ,1694031438
154,preobrazheniye,42.9019,133.9064,59.59,74,0,5.5,RU,1694031439
155,brookings,44.3114,-96.7984,70.14,43,0,13.8,US,1694031439
156,la passe,45.5549,-0.8967,80.83,53,93,5.73,FR,1694031439
157,port blair,11.6667,92.75,80.64,89,75,8.05,IN,1694031439
158,constantia,44.1833,28.65,70.7,65,12,7.65,RO,1694031372
159,praia da vitoria,38.7333,-27.0667,72.75,78,20,19.22,PT,1694031440
160,bamboo flat,11.7,92.7167,80.69,89,75,8.05,IN,1694031440
161,margate,51.3813,1.3862,72.3,90,11,3.0,GB,1694031440
162,al kharijah,25.4514,30.5464,91.63,13,3,6.42,EG,1694031440
163,forster,-32.1667,152.5167,54.03,89,14,8.95,AU,1694031440
164,sierra grande,-41.606,-65.3557,42.84,93,100,18.45,AR,1694031441
165,kangding,30.0513,101.9603,59.07,98,91,2.33,CN,1694031441
166,asifabad,19.3667,79.2833,76.14,96,100,3.65,IN,1694031441
167,longyearbyen,78.2186,15.6401,37.24,93,75,24.16,SJ,1694031441
168,pyt-yakh,60.7499,72.8582,51.66,71,19,4.34,RU,1694031163
169,evergreen,39.6333,-105.3172,82.99,27,0,3.0,US,1694031442
170,plauen,50.5,12.1333,69.4,64,3,4.18,DE,1694031442
171,latur,18.4,76.5833,74.53,84,100,11.43,IN,1694031442
172,mukalla,14.5425,49.1242,84.07,77,6,4.32,YE,1694031442
173,suining,30.508,105.5733,78.62,63,4,4.21,CN,1694031442
174,bredasdorp,-34.5322,20.0403,48.76,84,2,8.23,ZA,1694031442
175,barauli,26.4,84.5833,82.83,75,30,5.59,IN,1694031443
176,bilibino,68.0546,166.4372,33.24,69,3,1.43,RU,1694031443
177,utrik,11.2278,169.8474,81.91,78,100,7.92,MH,1694031443
178,howard springs,-12.497,131.047,69.71,87,29,4.52,AU,1694031443
179,novosilikatnyy,53.3097,83.6239,48.78,87,75,6.71,RU,1694031443
180,paphos,34.7667,32.4167,76.78,69,0,8.05,CY,1694031436
181,badger,64.8,-147.5333,48.07,91,100,9.22,US,1694031444
182,paide,58.8856,25.5572,48.65,92,5,4.94,EE,1694031444
183,cabo san lucas,22.8909,-109.9124,93.61,65,40,19.57,MX,1694031247
184,aasiaat,68.7098,-52.8699,34.56,99,100,4.52,GL,1694031444
185,flin flon,54.7682,-101.865,60.64,55,100,10.36,CA,1694031444
186,luanda,-8.8368,13.2343,73.4,83,0,6.91,AO,1694031445
187,luzilandia,-3.4578,-42.3703,93.18,36,33,11.97,BR,1694031445
188,naryn,41.4287,75.9911,52.56,32,88,4.94,KG,1694031445
189,ihosy,-22.4,46.1167,66.11,45,8,6.02,MG,1694031445
190,hamilton,39.1834,-84.5333,85.84,60,40,11.5,US,1694031445
191,hammerfest,70.6634,23.6821,48.65,87,75,16.11,NO,1694031445
192,mhamid,29.82,-5.72,93.69,20,100,10.31,MA,1694031446
193,tobelo,1.7284,128.0095,77.63,86,100,3.53,ID,1694031446
194,kargasok,59.0556,80.8572,50.11,98,100,5.79,RU,1694031446
195,nuku'alofa,-21.1333,-175.2,73.74,78,20,8.05,TO,1694031446
196,port shepstone,-30.7414,30.455,59.04,64,0,6.4,ZA,1694031446
197,el granada,37.5027,-122.4694,83.8,63,100,12.66,US,1694031446
198,cockburn town,21.4612,-71.1419,85.24,67,95,1.66,TC,1694031446
199,okha,53.5739,142.9478,48.94,85,0,10.16,RU,1694031447
200,tsiombe,-25.3,45.4833,64.08,95,0,2.19,MG,1694031447
201,west island,-12.1568,96.8225,76.98,83,100,10.36,CC,1694031447
202,bafq,31.6128,55.4107,87.67,13,2,5.01,IR,1694031447
203,hermanus,-34.4187,19.2345,55.8,80,4,11.74,ZA,1694031447
204,gromitz,54.15,10.9667,70.23,85,8,10.85,DE,1694031447
205,altamont,42.2068,-121.7372,75.4,46,40,10.36,US,1694031448
206,bilicenii vechi,47.6564,28.0472,63.77,50,0,4.12,MD,1694031448
207,ksar chellala,35.2122,2.3189,81.12,39,78,10.54,DZ,1694031448
208,nemuro,43.3236,145.575,62.26,93,99,11.56,JP,1694031448
209,kavaratti,10.5669,72.642,81.52,79,100,19.75,IN,1694031448
210,mount isa,-20.7333,139.5,55.17,67,0,3.44,AU,1694031448
211,lebu,-37.6167,-73.65,52.43,82,16,16.2,CL,1694031444
212,port saint john's,-31.6229,29.5448,58.59,56,3,3.36,ZA,1694031449
213,sawankhalok,17.316,99.8319,76.24,90,100,1.9,TH,1694031449
214,yuzhno-kurilsk,44.0306,145.8556,61.86,94,100,14.0,RU,1694031449
215,sarangani,5.4033,125.4636,81.7,77,77,8.66,PH,1694031449
216,tommot,58.9564,126.2925,42.01,72,100,1.7,RU,1694031449
217,trenton,40.217,-74.7429,96.12,51,40,6.91,US,1694031402
218,solnechnyy,50.7214,136.6319,49.24,65,0,3.94,RU,1694031450
219,byron bay,-28.65,153.6167,55.71,89,2,4.09,AU,1694031450
220,anadyr,64.75,177.4833,41.5,75,0,20.13,RU,1694031450
221,tazacorte,28.629,-17.9293,76.17,91,0,1.14,ES,1694031450
222,yorkton,51.2167,-102.4677,67.84,45,0,13.8,CA,1694031450
223,tafuna,-14.3358,-170.72,84.15,79,40,11.5,AS,1694031451
224,petropavlovsk-kamchatsky,53.0452,158.6483,52.39,100,100,8.95,RU,1694031451
225,codrington,-38.2667,141.9667,61.0,36,100,20.27,AU,1694031451
226,el nido,11.1858,119.3956,81.54,80,100,4.25,PH,1694031451
227,juan griego,11.0817,-63.9655,87.93,70,43,13.8,VE,1694031451
228,darnah,32.767,22.6367,79.68,70,19,1.48,LY,1694031451
229,saint-felicien,48.6501,-72.4491,86.5,65,40,6.91,CA,1694031452
230,villa gesell,-37.2639,-56.973,48.56,67,100,20.83,AR,1694031213
231,leer,53.2316,7.461,74.93,87,6,8.3,DE,1694031452
232,guerrero negro,27.9769,-114.0611,77.54,56,0,15.08,MX,1694031452
233,rundu,-17.9333,19.7667,71.89,15,5,5.97,NA,1694031452
234,carmo do cajuru,-20.1842,-44.7711,76.95,56,73,13.67,BR,1694031452
235,christchurch,-43.5333,172.6333,57.4,59,91,13.8,NZ,1694031453
236,wailua homesteads,22.0669,-159.378,82.83,77,40,9.22,US,1694031453
237,tefe,-3.3542,-64.7114,95.11,41,20,4.61,BR,1694031453
238,kralendijk,12.15,-68.2667,89.58,66,0,19.57,BQ,1694031434
239,sedrata,36.1287,7.5338,65.79,64,7,4.61,DZ,1694031378
240,el calafate,-50.3408,-72.2768,35.92,97,100,2.89,AR,1694031453
241,ust-nera,64.5667,143.2,41.56,97,100,4.52,RU,1694031453
242,prince george,53.9166,-122.753,58.24,77,100,6.91,CA,1694031308
243,kachug,53.9606,105.8817,51.08,94,100,4.25,RU,1694031454
244,okondja,-0.6549,13.6753,74.88,85,99,0.63,GA,1694031454
245,bujumbura,-3.3822,29.3644,73.29,81,70,4.52,BI,1694031454
246,colonia,50.9333,6.95,74.82,68,0,5.75,DE,1694031236
247,hastings,50.8552,0.5729,75.24,36,35,7.43,GB,1694031312
248,malango,-2.9627,119.9001,64.24,98,29,1.74,ID,1694031454
249,midvagur,62.0511,-7.1939,58.03,88,40,16.11,FO,1694031455
250,concordia,-31.393,-58.0209,61.79,67,100,7.0,AR,1694031455
251,chigorodo,7.6664,-76.6811,91.09,65,91,2.42,CO,1694031455
252,malinyi,-8.9333,36.1333,77.04,49,25,2.06,TZ,1694031455
253,charcas,23.1333,-101.1167,81.32,27,0,13.78,MX,1694031455
254,kerikeri,-35.2268,173.9474,52.92,94,72,2.19,NZ,1694031456
255,kapa'a,22.0752,-159.319,84.18,77,40,9.22,US,1694031456
256,nagqu,31.5,92.0,35.83,81,99,4.56,CN,1694031456
257,springbok,-29.6643,17.8865,51.1,18,1,6.87,ZA,1694031456
258,wewak,-3.5534,143.6268,78.76,88,100,7.23,PG,1694031456
259,saint-francois,46.4154,3.9054,74.68,60,0,4.61,FR,1694031322
260,ulety,51.3572,112.4849,58.86,91,100,3.04,RU,1694031456
261,jwaneng,-24.6004,24.7303,62.31,18,18,9.73,BW,1694031454
262,gurupi,-11.7292,-49.0686,94.78,24,64,5.12,BR,1694031457
263,sao joao da barra,-21.6403,-41.0511,71.69,79,100,16.89,BR,1694031457
264,mayfield heights,41.5192,-81.4579,86.86,83,40,11.5,US,1694031457
265,zhanaozen,43.3,52.8,75.04,49,98,12.73,KZ,1694031457
266,lucea,18.451,-78.1736,89.46,71,82,1.28,JM,1694031457
267,dryden,49.7833,-92.7503,53.89,76,100,9.22,CA,1694031457
268,arraial do cabo,-22.9661,-42.0278,71.46,78,40,11.5,BR,1694031458
269,chimore,-16.9833,-65.1333,87.28,49,100,4.88,BO,1694031458
270,cabedelo,-6.9811,-34.8339,81.27,73,21,13.24,BR,1694031458
271,sitangkai,4.6628,119.3928,82.53,72,90,4.09,PH,1694031458
272,markovo,57.3206,107.0881,45.9,94,100,6.8,RU,1694031458
273,lodja,-3.4833,23.4333,70.9,89,15,1.61,CD,1694031458
274,mogocha,53.7333,119.7667,49.53,99,100,3.53,RU,1694031460
275,al khums,32.6486,14.2619,77.23,69,1,17.09,LY,1694031460
276,timimoun,29.2639,0.231,102.58,15,0,3.44,DZ,1694031460
277,san jose del guaviare,2.5729,-72.6459,89.74,54,67,0.92,CO,1694031460
278,lagos de moreno,21.35,-101.9167,85.28,34,100,5.86,MX,1694031365
279,bikenibeu village,1.3673,173.1241,85.96,74,20,11.5,KI,1694031461
280,heunghae,36.1125,129.3522,68.67,82,0,11.3,KR,1694031462
281,maragogi,-9.0122,-35.2225,76.21,79,43,9.86,BR,1694031462
282,recani,31.2846,-4.2688,92.48,19,94,21.25,MA,1694031462
283,saipan,15.1355,145.701,79.5,89,75,4.61,MP,1694031462
284,mimizan,44.2006,-1.2289,77.9,59,6,4.88,FR,1694031462
285,wolmaransstad,-27.1974,25.9831,46.83,13,53,4.56,ZA,1694031462
286,hafar al-batin,28.4328,45.9708,97.38,16,0,6.91,SA,1694031463
287,chilecito,-29.1619,-67.4974,69.73,31,18,8.68,AR,1694031463
288,ad dabbah,18.05,30.95,100.08,12,68,6.91,SD,1694031463
289,katsuren-haebaru,26.3369,127.8719,81.37,86,75,4.61,JP,1694031463
290,dubinino,55.6192,89.0911,51.51,74,100,4.56,RU,1694031463
291,bismarck,46.8083,-100.7837,68.86,54,0,5.75,US,1694031452
292,nar'yan-mar,67.6713,53.087,52.12,96,100,4.38,RU,1694031464
293,klyuchi,52.2667,79.1667,52.43,70,100,6.76,RU,1694031464
294,mckinleyville,40.9465,-124.1006,81.34,76,0,8.05,US,1694031464
295,hilo,19.7297,-155.09,83.95,71,40,6.91,US,1694031464
296,broken hill,-31.95,141.4333,59.52,24,44,17.6,AU,1694031464
297,kharp,66.8014,65.8081,49.12,78,94,2.89,RU,1694031464
298,raeren,50.6677,6.1168,72.43,75,8,5.84,BE,1694031465
299,gimbi,9.1667,35.8333,54.61,95,100,2.55,ET,1694031465
300,sungailiat,-1.85,106.1333,77.77,86,100,6.35,ID,1694031465
301,vila velha,-20.3297,-40.2925,71.94,88,75,13.0,BR,1694031185
302,invercargill,-46.4,168.35,51.03,88,100,11.99,NZ,1694031465
303,jagtial,18.8,78.9333,75.96,93,100,8.5,IN,1694031465
304,chui,-33.6971,-53.4616,54.39,72,96,15.35,UY,1694031465
305,ust-tsilma,65.441,52.1498,55.36,91,100,5.3,RU,1694031466
306,mili,6.0815,171.735,83.75,74,18,11.92,MH,1694031325
307,lihue,21.9789,-159.3672,83.44,71,40,9.22,US,1694031466
308,alofi,-19.0595,-169.9187,73.29,94,75,5.75,NU,1694031466
309,nyrob,60.733,56.7202,53.76,93,97,6.96,RU,1694031466
310,yigo village,13.5361,144.8886,78.12,91,0,6.91,GU,1694031467
311,funafuti,-8.5243,179.1942,84.2,94,75,21.7,TV,1694031467
312,svatove,49.4103,38.1503,62.44,47,1,6.46,UA,1694031467
313,katsuura,35.1333,140.3,75.0,88,83,9.64,JP,1694031468
314,wielen,52.8946,16.1714,67.51,57,7,3.06,PL,1694031468
315,polyarnyy,69.1989,33.4478,45.91,84,83,16.93,RU,1694031469
316,kirkland lake,48.1446,-80.0377,70.09,94,100,1.14,CA,1694031469
317,shenjiamen,29.9576,122.298,78.1,85,2,8.61,CN,1694031469
318,taulaga,-11.0553,-171.0883,80.89,81,35,15.88,AS,1694031470
319,lere,10.387,8.5726,78.03,68,100,0.54,NG,1694031470
320,laayoune,27.1622,-13.2032,77.34,47,89,16.11,EH,1694031470
321,neryungri,56.6709,124.6491,45.01,90,100,1.7,RU,1694031470
322,namibe,-15.1961,12.1522,64.62,90,99,4.65,AO,1694031470
323,callao,-12.0667,-77.15,75.72,73,100,12.66,PE,1694031470
324,tari,12.4086,4.4914,83.84,64,10,9.17,NG,1694031470
325,acapulco de juarez,16.8634,-99.8901,89.42,62,40,4.61,MX,1694031267
326,walvis bay,-22.9575,14.5053,55.09,73,64,2.66,NA,1694031471
327,remire-montjoly,4.9167,-52.2667,89.64,51,0,9.22,GF,1694031471
328,meizhou,24.2977,116.1072,76.19,99,100,2.15,CN,1694031471
329,cidreira,-30.1811,-50.2056,61.21,81,42,19.8,BR,1694031471
330,livingston,55.9029,-3.5226,63.1,90,20,4.61,GB,1694031471
331,parambu,-6.2111,-40.6944,90.86,15,11,8.08,BR,1694031471
332,igarka,67.4667,86.5833,41.09,65,23,6.55,RU,1694031472
333,hasaki,35.7333,140.8333,76.3,80,55,9.48,JP,1694031472
334,comandante fontana,-25.3345,-59.6821,88.93,36,100,10.02,AR,1694031472
335,kijang,35.2442,129.2139,71.33,75,0,13.76,KR,1694031473
336,pedra branca,-5.4542,-39.7172,88.93,22,48,7.14,BR,1694031473
337,happy valley-goose bay,53.3168,-60.3315,89.91,29,20,11.5,CA,1694031473
338,pisco,-13.7,-76.2167,71.65,64,0,14.97,PE,1694031474
339,namtsy,62.7161,129.6658,37.83,60,99,8.7,RU,1694031474
340,nampula,-15.1165,39.2666,69.75,83,40,6.91,MZ,1694031475
341,norfolk county,42.1668,-71.2495,92.55,64,20,4.61,US,1694031397
342,island harbour,50.724,-1.2758,72.3,87,100,1.12,GB,1694031475
343,eydhafushi,5.1033,73.0708,81.23,79,98,12.1,MV,1694031475
344,i-n-salah,27.1935,2.4607,102.33,14,17,11.48,DZ,1694031476
345,queenstown,-31.8976,26.8753,48.43,19,27,2.53,ZA,1694031476
346,nueva gerona,21.8833,-82.8,87.21,64,46,4.72,CU,1694031477
347,outokumpu,62.7269,29.0159,49.89,83,7,6.24,FI,1694031477
348,tabou,4.423,-7.3528,76.73,86,99,6.87,CI,1694031477
349,parral,26.9333,-105.6667,91.71,16,6,15.68,MX,1694031256
350,zahedan,29.4963,60.8629,66.11,15,0,6.91,IR,1694031456
351,susuman,62.7833,148.1667,42.35,76,100,3.44,RU,1694031478
352,nanzhang chengguanzhen,31.7839,111.8275,73.17,87,1,4.74,CN,1694031478
353,mandera,3.9366,41.867,84.65,50,1,24.7,KE,1694031478
354,flying fish cove,-10.4217,105.6791,74.88,83,100,11.5,CX,1694031324
355,vargem grande do sul,-21.8322,-46.8936,79.25,56,81,4.05,BR,1694031479
356,nikolayevsk-on-amure,53.1406,140.73,46.71,87,0,5.37,RU,1694031479
357,kialla,-36.4161,145.3954,43.75,77,19,13.65,AU,1694031479
358,alo,7.4178,6.7371,78.89,83,62,2.06,NG,1694031480
359,ballina,-28.8667,153.5667,55.78,90,2,5.23,AU,1694031480
360,muhos,64.808,25.9931,51.58,85,21,4.41,FI,1694031480
361,pacific grove,36.6177,-121.9166,72.41,71,0,12.66,US,1694031481
362,pitimbu,-7.4706,-34.8086,81.19,77,28,12.64,BR,1694031481
363,mersing,2.4312,103.8405,75.11,94,20,6.91,MY,1694031439
364,acarau,-2.8856,-40.12,81.09,66,15,20.78,BR,1694031482
365,amarante do maranhao,-5.5667,-46.7422,96.42,22,96,4.74,BR,1694031483
366,qarah bagh,34.9402,61.7759,65.95,19,0,6.42,AF,1694031484
367,kingsland,30.8,-81.6898,95.94,47,9,1.57,US,1694031243
368,afaahiti,-17.75,-149.2833,73.27,87,65,17.22,PF,1694031485
369,jianshui,23.6363,102.8264,65.12,93,16,3.02,CN,1694031485
370,veshenskaya,49.6303,41.7334,66.2,42,56,8.7,RU,1694031485
371,manokwari,-0.8667,134.0833,77.07,84,100,3.67,ID,1694031485
372,amga,60.8953,131.9608,37.51,91,86,2.13,RU,1694031486
373,kedougou,12.5579,-12.1743,76.41,93,100,3.53,SN,1694031486
374,kuusamo,65.9667,29.1833,42.84,87,0,2.3,FI,1694031486
375,neiafu,-18.65,-173.9833,74.08,78,20,6.91,TO,1694031486
376,fortaleza,-3.7227,-38.5247,82.53,69,0,17.27,BR,1694031486
377,kidal,18.4411,1.4078,88.54,38,79,9.13,ML,1694031486
378,benguela,-12.5763,13.4055,72.07,82,9,1.83,AO,1694031486
379,sinabang,2.4803,96.3801,79.25,83,100,8.99,ID,1694031487
380,minas de marcona,-15.2119,-75.1103,63.09,63,4,18.05,PE,1694031487
381,charlestown,-32.95,151.6667,57.85,89,0,1.99,AU,1694031487
382,najran,17.4924,44.1277,90.25,23,87,3.18,SA,1694031487
383,pokrovsk,48.282,37.1758,63.79,44,94,8.1,UA,1694031487
384,mossel bay,-34.1831,22.146,56.16,76,8,6.62,ZA,1694031488
385,glenwood,41.5425,-87.6023,81.91,51,100,14.97,US,1694031488
386,konstantinovka,49.6167,127.9833,59.02,92,99,7.76,RU,1694031488
387,dombarovskiy,50.7587,59.5386,61.92,57,80,5.86,RU,1694031488
388,santana,-0.0583,-51.1817,89.78,58,20,13.8,BR,1694031488
389,mejit,10.2753,170.8646,82.74,76,100,8.43,MH,1694031488
390,lake wales,27.9014,-81.5859,94.98,48,0,5.75,US,1694031488
391,zaragoza,41.6561,-0.8773,82.02,41,0,5.75,ES,1694031305
392,boppard,50.2308,7.5899,74.55,71,39,2.89,DE,1694031489
393,salym,60.0625,71.4789,49.32,75,99,4.25,RU,1694031489
394,amahai,-3.3333,128.9167,74.57,88,44,5.06,ID,1694031489
395,moravsky krumlov,49.0489,16.3117,69.62,70,0,4.61,CZ,1694031489
396,marco,25.9726,-81.729,93.06,57,20,10.83,US,1694031346
397,tazovsky,67.4667,78.7,40.8,70,46,6.96,RU,1694031489
398,uyuni,-20.4597,-66.825,57.67,7,60,13.78,BO,1694031490
399,kununurra,-15.7667,128.7333,66.18,82,21,0.0,AU,1694031490
400,inda silase,14.1031,38.2829,62.92,88,99,3.47,ET,1694031490
401,kecel,46.5253,19.2519,66.52,44,0,7.81,HU,1694031490
402,kruisfontein,-34.0033,24.7314,50.13,71,56,7.83,ZA,1694031490
403,san matias,-16.3667,-58.4,91.87,39,92,8.03,BO,1694031490
404,tarakan,3.3,117.6333,80.22,78,100,2.3,ID,1694031491
405,alesund,62.4723,6.1549,55.76,90,0,5.75,NO,1694031401
406,stephenville,32.2207,-98.2023,102.76,31,0,5.75,US,1694031491
407,nanping,26.645,118.1736,73.8,99,100,1.48,CN,1694031491
408,shira,54.4911,89.9531,49.19,67,100,2.48,RU,1694031491
409,qianzhou,28.3167,109.7167,75.02,91,75,2.75,CN,1694031446
410,leticia,-4.2153,-69.9406,91.45,58,20,6.91,CO,1694031491
411,siuna,13.7332,-84.7773,93.38,46,37,6.04,NI,1694031492
412,al mayadin,35.0209,40.4535,91.02,13,0,8.21,SY,1694031492
413,karratha,-20.7377,116.8463,67.75,71,71,4.09,AU,1694031248
414,inarajan village,13.2736,144.7484,79.77,97,83,0.72,GU,1694031492
415,onega,63.9061,38.1404,46.54,91,33,7.47,RU,1694031492
416,trapani,37.8333,12.6667,75.29,88,20,10.36,IT,1694031492
417,saint-philippe,-21.3585,55.7679,69.39,73,21,6.11,RE,1694031492
418,luderitz,-26.6481,15.1594,59.05,56,68,14.03,NA,1694031493
419,wamba,8.9333,8.6,75.25,89,20,1.19,NG,1694031493
420,mont-dore,-22.2833,166.5833,66.18,77,90,9.62,NC,1694031493
421,lagos,6.5833,3.75,79.12,91,84,5.17,NG,1694031235
422,chernyshevskiy,63.0128,112.4714,25.83,83,9,3.29,RU,1694031493
423,hirtshals,57.5881,9.9592,61.56,90,98,7.45,DK,1694031493
424,la libertad,-2.2333,-80.9,78.46,78,75,10.36,EC,1694031494
425,wuhai,39.6647,106.8122,71.58,46,87,10.6,CN,1694031494
426,canutama,-6.5339,-64.3831,106.5,14,36,2.82,BR,1694031494
427,cestos city,5.46,-9.5828,78.01,82,85,8.34,LR,1694031494
428,douglas,41.3,-96.167,76.08,35,0,13.8,US,1694031494
429,masaka,-0.3338,31.7341,65.52,79,18,4.61,UG,1694031371
430,poronaysk,49.2167,143.1167,48.87,83,0,6.46,RU,1694031495
431,yamada,39.4667,141.95,68.54,92,1,6.69,JP,1694031495
432,sarmiento,-45.5882,-69.07,45.66,82,100,1.74,AR,1694031495
433,ar ruways,24.1103,52.7306,90.99,67,4,7.94,AE,1694031495
434,lucapa,-8.4192,20.7447,79.07,47,66,7.81,AO,1694031495
435,fuglafjordur,62.244,-6.814,57.67,96,100,14.16,FO,1694031495
436,jiuquan,39.7432,98.5174,60.78,53,100,1.5,CN,1694031495
437,motygino,58.1831,94.7592,49.77,85,99,3.27,RU,1694031496
438,roma,43.2128,-75.4557,89.96,58,0,9.22,US,1694031496
439,rawson,-43.3002,-65.1023,45.81,87,100,25.99,AR,1694031496
440,sheridan,44.8333,-106.9173,82.02,35,0,3.44,US,1694031496
441,dunedin,-45.8742,170.5036,54.34,64,100,18.41,NZ,1694031265
442,labytnangi,66.6572,66.4183,48.81,71,76,3.06,RU,1694031496
443,kwang binh,17.4833,106.6,79.45,88,100,5.44,VN,1694031496
444,alajarvi,63.0,23.8167,45.68,89,13,4.56,FI,1694031497
445,bathsheba,13.2167,-59.5167,88.41,74,40,14.97,BB,1694031497
446,illizi,26.4833,8.4667,94.8,20,0,12.37,DZ,1694031497
447,harper,4.375,-7.7169,77.13,85,100,7.87,LR,1694031280
448,hami,42.8,93.45,68.67,35,0,8.34,CN,1694031497
449,akureyri,65.6835,-18.0878,57.13,58,0,13.8,IS,1694031497
450,kalabo,-14.97,22.6814,74.12,22,0,2.62,ZM,1694031498
451,bodaybo,57.8506,114.1933,47.17,76,100,3.22,RU,1694031498
452,pointe aux piments,-20.0628,57.5131,71.53,72,11,9.15,MU,1694031498
453,cole harbour,44.6724,-63.4751,70.99,94,75,14.97,CA,1694031498
454,usogorsk,63.4106,48.6872,49.06,94,100,8.72,RU,1694031498
455,ostroleka,53.0862,21.5757,64.04,72,14,5.1,PL,1694031498
456,thunder bay,48.4001,-89.3168,53.58,94,100,10.36,CA,1694031216
457,trinidad,-14.8333,-64.9,91.38,52,40,3.44,BO,1694031499
458,gemena,3.25,19.7667,73.08,92,11,1.52,CD,1694031499
459,daru,-9.0763,143.2092,76.55,92,64,12.71,PG,1694031499
460,santa ana,33.7456,-117.8678,87.71,55,20,6.91,US,1694031473
461,olyokminsk,60.3736,120.4264,28.17,91,8,0.22,RU,1694031499
462,puerto lempira,15.2667,-83.7667,89.74,66,20,8.05,HN,1694031500
463,lusaka,-15.4067,28.2871,70.43,29,0,4.99,ZM,1694031500
464,el charco,2.4769,-78.1105,85.23,73,60,9.48,CO,1694031500
465,suva,-18.1416,178.4415,76.48,65,40,8.05,FJ,1694031500
466,swift current,50.2834,-107.8014,74.21,33,0,5.75,CA,1694031248
467,kilifi,-3.6305,39.8499,75.33,88,36,11.86,KE,1694031500
468,korla,41.7597,86.1469,71.76,24,0,14.45,CN,1694031501
469,labrador city,52.9463,-66.9114,84.11,42,40,10.36,CA,1694031501
470,bengbu,32.9408,117.3608,70.99,95,0,5.82,CN,1694031379
471,ubari,26.5921,12.7805,86.05,23,0,8.39,LY,1694031501
472,olinda,-8.0089,-34.8553,80.33,74,75,9.22,BR,1694031203
473,birjand,32.8663,59.2211,72.07,16,0,13.8,IR,1694031501
474,male,4.1748,73.5089,82.35,89,75,6.91,MV,1694031501
475,klaksvik,62.2266,-6.589,58.12,98,100,15.5,FO,1694031502
476,la'ie,21.6477,-157.9253,85.96,71,91,7.0,US,1694031502
477,kalymnos,36.95,26.9833,80.13,78,20,6.91,GR,1694031502
478,cortland,42.6001,-76.083,90.36,57,40,4.61,US,1694031502
479,howrah,22.5892,88.3103,82.4,89,75,4.61,IN,1694031502
480,rikaze,29.25,88.8833,53.62,52,10,4.97,CN,1694031502
481,salinas,36.6777,-121.6555,78.57,63,0,12.66,US,1694031503
482,puerto baquerizo moreno,-0.9,-89.6,81.59,65,20,13.8,EC,1694031503
483,ambalangoda,6.2355,80.0538,78.04,90,100,8.34,LK,1694031503
484,fukumitsu,36.55,136.8667,72.34,99,97,3.36,JP,1694031503
485,nadi,-17.8,177.4167,75.2,69,40,6.91,FJ,1694031503
486,fort riley north,39.1108,-96.8139,85.3,25,0,9.22,US,1694031506
487,tagiura,32.8817,13.3506,79.11,62,0,12.17,LY,1694031506
488,taiynsha,53.8478,69.7639,46.54,85,15,8.16,KZ,1694031507
489,wucheng,29.6008,118.175,72.37,95,1,2.84,CN,1694031507
490,colonel hill,22.7667,-74.2167,83.95,74,83,10.0,BS,1694031507
491,marion,39.7684,-86.1555,85.55,68,75,17.27,US,1694031508
492,isla del bosque,22.7333,-105.85,88.47,65,67,10.27,MX,1694031508
493,jacobabad,28.281,68.4388,88.3,36,0,7.96,PK,1694031508
494,grants,35.1473,-107.8514,89.83,13,0,14.97,US,1694031429
495,mexico,15.0646,120.7198,78.51,92,93,3.13,PH,1694031508
496,marvejols,44.5538,3.2914,62.58,61,0,1.79,FR,1694031509
497,revelstoke,50.9832,-118.2023,66.22,68,0,9.22,CA,1694031446
498,verkhnevilyuysk,63.4453,120.3167,25.93,96,19,4.83,RU,1694031509
499,port-vila,-17.7338,168.3219,73.0,73,75,12.66,VU,1694031509
500,atoyatempan,18.8167,-97.9167,79.59,38,36,6.38,MX,1694031509
501,svetlyy,54.675,20.1347,62.96,90,9,6.26,RU,1694031509
502,quellon,-43.1167,-73.6167,48.45,87,100,14.97,CL,1694031509
503,rayachoti,14.05,78.75,80.53,65,100,10.02,IN,1694031510
504,de aar,-30.6497,24.0123,51.6,18,1,6.87,ZA,1694031510
505,konosha,60.9736,40.257,46.94,75,90,9.69,RU,1694031510
506,williams lake,52.1415,-122.1445,62.06,65,37,3.0,CA,1694031510
507,murray bridge,-35.1167,139.2667,54.34,57,27,4.99,AU,1694031510
508,bastia,42.6667,9.3333,77.02,58,0,4.61,FR,1694031510
509,alaghsas,17.0187,8.0168,90.79,31,8,14.97,NE,1694031511
510,trairi,-3.2778,-39.2689,80.47,68,23,15.17,BR,1694031511
511,mount gambier,-37.8333,140.7667,55.31,47,100,6.93,AU,1694031511
512,vanimo,-2.6741,141.3028,76.75,91,31,4.94,PG,1694031511
513,palpa,-14.5336,-75.1856,83.23,38,5,9.95,PE,1694031511
514,caruthersville,36.1931,-89.6556,89.58,40,58,13.49,US,1694031511
515,fruita,39.1589,-108.729,92.55,19,0,5.75,US,1694031397
516,shetpe,44.1667,52.1167,74.75,34,76,4.92,KZ,1694031512
517,belyy yar,53.6039,91.3903,53.49,94,40,6.71,RU,1694031512
518,san rafael,-34.6177,-68.3301,59.86,54,93,8.43,AR,1694031512
519,portland,45.5234,-122.6762,76.8,52,20,5.75,US,1694031244
520,mizan teferi,6.9833,35.5833,60.55,98,41,1.28,ET,1694031512
521,birzebbuga,35.8258,14.5269,76.15,78,20,18.41,MT,1694031513
522,fort st. john,56.2499,-120.8529,58.89,47,75,6.91,CA,1694031362
523,ivdel',60.6911,60.4206,47.53,89,6,1.59,RU,1694031513
524,kuanda,56.3161,116.0806,52.95,65,100,1.19,RU,1694031513
525,aberdeen,57.1437,-2.0981,61.29,94,72,8.05,GB,1694031257
526,guadix,37.2993,-3.1392,74.12,58,98,1.61,ES,1694031513
527,shiyan,32.6475,110.7781,70.63,92,27,0.92,CN,1694031513
528,castillos,-34.1667,-53.8333,53.53,70,100,14.58,UY,1694031514
529,beira,-19.8436,34.8389,71.69,100,40,5.75,MZ,1694031514
530,tadine,-21.55,167.8833,67.41,70,45,14.12,NC,1694031514
531,haiku-pauwela,20.9219,-156.3051,84.22,59,20,20.71,US,1694031514
532,chonchi,-42.6128,-73.8092,47.41,96,100,6.91,CL,1694031514
533,ola,59.5833,151.2833,44.15,82,100,26.44,RU,1694031514
534,birao,10.2849,22.7882,72.0,91,80,13.71,CF,1694031515
535,zeya,53.75,127.2667,51.13,97,100,4.72,RU,1694031515
536,ovejas,9.5325,-75.2238,92.03,55,22,4.52,CO,1694031515
537,thinadhoo,0.5333,72.9333,82.36,74,100,7.9,MV,1694031515
538,cadale,2.7603,46.3222,77.56,88,5,16.33,SO,1694031515
539,al bardiyah,31.7561,25.0865,83.23,67,0,18.97,LY,1694031515
540,lazaro cardenas,17.9583,-102.2,86.54,63,90,8.43,MX,1694031401
541,port augusta,-32.5,137.7667,55.74,81,54,13.98,AU,1694031516
542,maintirano,-18.0667,44.0167,76.12,68,31,6.44,MG,1694031516
543,parkes,-33.1333,148.1833,47.26,39,0,7.63,AU,1694031516
544,revda,56.801,59.9303,45.72,80,0,2.95,RU,1694031516
545,galle,6.0367,80.217,78.76,88,100,9.66,LK,1694031516
546,sumbawa besar,-8.5,117.4333,67.87,93,7,4.88,ID,1694031517
